[{"tcheckins":"19","name":"Distinto Mall","lat":"38.2471","lon":"21.7349","mastercat":"4d4b7105d754a06376d81259","subcat":"Cocktail Bar"},{"tcheckins":"17","name":"Pedonale","lat":"38.2473","lon":"21.7344","mastercat":"4d4b7105d754a06374d81259","subcat":"Caf\u00e9"},{"tcheckins":"11","name":"\u03a0\u03b5\u03b6\u03cc\u03b4\u03c1\u03bf\u03bc\u03bf\u03c2 \u03a1\u03ae\u03b3\u03b1 \u03a6\u03b5\u03c1\u03b1\u03af\u03bf\u03c5","lat":"38.2474","lon":"21.7349","mastercat":"4d4b7105d754a06377d81259","subcat":"Pedestrian Plaza"},{"tcheckins":"11","name":"Carousello","lat":"38.2464","lon":"21.7333","mastercat":"4d4b7105d754a06374d81259","subcat":"Caf\u00e9"},{"tcheckins":"9","name":"Makina","lat":"38.2444","lon":"21.7357","mastercat":"4d4b7105d754a06374d81259","subcat":"Caf\u00e9"},{"tcheckins":"9","name":"\u03a3\u03c4\u03b1\u03b8\u03bc\u03cc\u03c2 \u039a\u03a4\u0395\u039b \u039d\u03bf\u03bc\u03bf\u03cd \u0391\u03c7\u03b1\u0390\u03b1\u03c2","lat":"38.251","lon":"21.7365","mastercat":"4d4b7105d754a06379d81259","subcat":"Bus Station"},{"tcheckins":"7","name":"Tag","lat":"38.2467","lon":"21.7325","mastercat":"4d4b7105d754a06374d81259","subcat":"Caf\u00e9"},{"tcheckins":"6","name":"Talks","lat":"38.2408","lon":"21.7339","mastercat":"4d4b7105d754a06374d81259","subcat":"Caf\u00e9"},{"tcheckins":"6","name":"Abbey Kitchen Bar","lat":"38.2417","lon":"21.7348","mastercat":"4d4b7105d754a06374d81259","subcat":"Bar"},{"tcheckins":"5","name":"\u0391\u03c5\u03bb\u03ae by Vouz","lat":"38.2459","lon":"21.7332","mastercat":"4d4b7105d754a06376d81259","subcat":"Beer Garden"},{"tcheckins":"4","name":"Dose","lat":"38.2599","lon":"21.7385","mastercat":"4d4b7105d754a06374d81259","subcat":"Caf\u00e9"},{"tcheckins":"4","name":"George I Square (\u03a0\u03bb\u03b1\u03c4\u03b5\u03af\u03b1 \u0393\u03b5\u03c9\u03c1\u03b3\u03af\u03bf\u03c5 \u0391')","lat":"38.2464","lon":"21.7354","mastercat":"4d4b7105d754a06377d81259","subcat":"Plaza"},{"tcheckins":"4","name":"\u0398\u03b5\u03b1\u03c4\u03c1\u03ac\u03ba\u03b9","lat":"38.2595","lon":"21.7369","mastercat":"4d4b7105d754a06374d81259","subcat":"Caf\u00e9"},{"tcheckins":"4","name":"W seaside","lat":"38.2614","lon":"21.7389","mastercat":"4d4b7105d754a06374d81259","subcat":"Caf\u00e9"},{"tcheckins":"4","name":"Si Doux","lat":"38.2465","lon":"21.733","mastercat":"4d4b7105d754a06374d81259","subcat":"Caf\u00e9"},{"tcheckins":"4","name":"CITY","lat":"38.2462","lon":"21.735","mastercat":"4d4b7105d754a06374d81259","subcat":"Caf\u00e9"},{"tcheckins":"4","name":"Coffee Island","lat":"38.2448","lon":"21.7278","mastercat":"4d4b7105d754a06374d81259","subcat":"Coffee Shop"},{"tcheckins":"4","name":"Majestic","lat":"38.2473","lon":"21.7344","mastercat":"4d4b7105d754a06376d81259","subcat":"Caf\u00e9"},{"tcheckins":"2","name":"Souvlakeri","lat":"38.249","lon":"21.737","mastercat":"4d4b7105d754a06374d81259","subcat":"Fast Food Restaurant"},{"tcheckins":"2","name":"ZaZa ethnic shop","lat":"38.2449","lon":"21.7366","mastercat":"4d4b7105d754a06378d81259","subcat":"Gift Shop"},{"tcheckins":"2","name":"Coffee Island","lat":"38.2424","lon":"21.7355","mastercat":"4d4b7105d754a06374d81259","subcat":"Coffee Shop"},{"tcheckins":"2","name":"Jazi","lat":"38.2486","lon":"21.7376","mastercat":"4d4b7105d754a06374d81259","subcat":"Caf\u00e9"},{"tcheckins":"2","name":"Menodiciotto","lat":"38.247","lon":"21.7343","mastercat":"4d4b7105d754a06374d81259","subcat":"Ice Cream Shop"},{"tcheckins":"2","name":"The Juice Bar","lat":"38.2452","lon":"21.7341","mastercat":"4d4b7105d754a06374d81259","subcat":"Juice Bar"},{"tcheckins":"2","name":"Batter Butlers","lat":"38.2463","lon":"21.7327","mastercat":"4d4b7105d754a06374d81259","subcat":"Creperie"},{"tcheckins":"2","name":"\u03c1\u03bf\u03ba\u03c6\u03cc\u03c1","lat":"38.2422","lon":"21.731","mastercat":"4d4b7105d754a06376d81259","subcat":"Restaurant"},{"tcheckins":"2","name":"Locale","lat":"38.2499","lon":"21.7374","mastercat":"4d4b7105d754a06374d81259","subcat":"Caf\u00e9"},{"tcheckins":"2","name":"Mood by Michailidis","lat":"38.2472","lon":"21.735","mastercat":"4d4b7105d754a06378d81259","subcat":"Clothing Store"},{"tcheckins":"2","name":"\u0392\u03b9\u03b5\u03bd\u03bf\u03c5\u03ac","lat":"38.2423","lon":"21.7351","mastercat":"4d4b7105d754a06374d81259","subcat":"Dessert Shop"},{"tcheckins":"2","name":"Patras Marina (\u039c\u03b1\u03c1\u03af\u03bd\u03b1 \u03a0\u03b1\u03c4\u03c1\u03ce\u03bd)","lat":"38.26","lon":"21.7387","mastercat":"4d4b7105d754a06377d81259","subcat":"Harbor \/ Marina"},{"tcheckins":"2","name":"Poirot","lat":"38.2455","lon":"21.7369","mastercat":"4d4b7105d754a06374d81259","subcat":"Caf\u00e9"},{"tcheckins":"2","name":"Colazione","lat":"38.2493","lon":"21.7355","mastercat":"4d4b7105d754a06374d81259","subcat":"Italian Restaurant"},{"tcheckins":"2","name":"Faros","lat":"38.2441","lon":"21.7262","mastercat":"4d4b7105d754a06377d81259","subcat":"Lighthouse"},{"tcheckins":"2","name":"Tiger","lat":"38.2486","lon":"21.7356","mastercat":"4d4b7105d754a06378d81259","subcat":"Gift Shop"},{"tcheckins":"2","name":"\u0397 \u039a\u03b1\u03c4\u03c3\u03b1\u03c1\u03cc\u03bb\u03b1 \u03c4\u03b7\u03c2 \u03a4\u03bf\u03cd\u03bb\u03b1\u03c2","lat":"38.25","lon":"21.738","mastercat":"4d4b7105d754a06374d81259","subcat":"Taverna"},{"tcheckins":"2","name":"AB City \u03a0\u03ac\u03c4\u03c1\u03b1 6","lat":"38.2406","lon":"21.7301","mastercat":"4d4b7105d754a06378d81259","subcat":"Grocery Store"},{"tcheckins":"2","name":"Vodafone","lat":"38.2467","lon":"21.7351","mastercat":"4d4b7105d754a06378d81259","subcat":"Mobile Phone Shop"},{"tcheckins":"2","name":"Zara","lat":"38.2477","lon":"21.7364","mastercat":"4d4b7105d754a06378d81259","subcat":"Clothing Store"},{"tcheckins":"2","name":"Olga Square (\u03a0\u03bb\u03b1\u03c4\u03b5\u03af\u03b1 \u038c\u03bb\u03b3\u03b1\u03c2)","lat":"38.2491","lon":"21.738","mastercat":"4d4b7105d754a06377d81259","subcat":"Plaza"},{"tcheckins":"2","name":"Loft","lat":"38.2469","lon":"21.7343","mastercat":"4d4b7105d754a06376d81259","subcat":"Caf\u00e9"},{"tcheckins":"2","name":"Bodegas","lat":"38.2453","lon":"21.7319","mastercat":"4d4b7105d754a06374d81259","subcat":"Restaurant"},{"tcheckins":"2","name":"Deck","lat":"38.2558","lon":"21.7376","mastercat":"4d4b7105d754a06376d81259","subcat":"Lounge"},{"tcheckins":"2","name":"Psila Alonia Square (\u03a0\u03bb\u03b1\u03c4\u03b5\u03af\u03b1 \u03a5\u03c8\u03b7\u03bb\u03ce\u03bd \u0391\u03bb\u03c9\u03bd\u03af\u03c9\u03bd)","lat":"38.2412","lon":"21.735","mastercat":"4d4b7105d754a06377d81259","subcat":"Plaza"},{"tcheckins":"2","name":"Copy-Cat","lat":"38.2516","lon":"21.74","mastercat":"4d4b7105d754a06378d81259","subcat":"Paper \/ Office Supplies Store"},{"tcheckins":"2","name":"Amelie","lat":"38.2452","lon":"21.734","mastercat":"4d4b7105d754a06376d81259","subcat":"Caf\u00e9"},{"tcheckins":"2","name":"H&amp;M","lat":"38.2485","lon":"21.736","mastercat":"4d4b7105d754a06378d81259","subcat":"Clothing Store"},{"tcheckins":"1","name":"Hemingway","lat":"38.2472","lon":"21.7341","mastercat":"4d4b7105d754a06376d81259","subcat":"Bar"},{"tcheckins":"1","name":"Adonis Hotel Patras","lat":"38.2509","lon":"21.7374","mastercat":"4d4b7105d754a06379d81259","subcat":"Hotel"},{"tcheckins":"1","name":"Sud","lat":"38.2506","lon":"21.7365","mastercat":"4d4b7105d754a06376d81259","subcat":"Caf\u00e9"},{"tcheckins":"1","name":"Bardot","lat":"38.2453","lon":"21.7319","mastercat":"4d4b7105d754a06376d81259","subcat":"Caf\u00e9"},{"tcheckins":"1","name":"Eataly","lat":"38.2476","lon":"21.7348","mastercat":"4d4b7105d754a06374d81259","subcat":"Italian Restaurant"},{"tcheckins":"1","name":"\u03a0\u03bf\u03b9\u03ba\u03af\u03bb\u03b7 \u03a3\u03c4\u03bf\u03ac","lat":"38.2461","lon":"21.7329","mastercat":"4d4b7105d754a06376d81259","subcat":"Bar"},{"tcheckins":"1","name":"\u0391\u03bd\u03b4\u03c1\u03b9\u03ba\u03cc\u03c0\u03bf\u03c5\u03bb\u03bf\u03c2","lat":"38.2492","lon":"21.7384","mastercat":"4d4b7105d754a06378d81259","subcat":"Supermarket"},{"tcheckins":"0","name":"Noodles Passion","lat":"38.2406","lon":"21.7353","mastercat":"4d4b7105d754a06374d81259","subcat":"Asian Restaurant"},{"tcheckins":"0","name":"Atlanta Hotel","lat":"38.2491","lon":"21.7379","mastercat":"4d4b7105d754a06379d81259","subcat":"Hotel"},{"tcheckins":"0","name":"Tapas","lat":"38.247","lon":"21.7394","mastercat":"4d4b7105d754a06374d81259","subcat":"Greek Restaurant"},{"tcheckins":"0","name":"\u03a0\u03ac\u03c1\u03c9\u03b4\u03bf\u03c2","lat":"38.2458","lon":"21.7325","mastercat":"4d4b7105d754a06374d81259","subcat":"Caf\u00e9"},{"tcheckins":"0","name":"\u03a0\u03b1\u03bb\u03b1\u03b9\u03cc \u039b\u03b9\u03bc\u03ac\u03bd\u03b9 \u03a0\u03b1\u03c4\u03c1\u03ce\u03bd","lat":"38.2499","lon":"21.7339","mastercat":"4d4b7105d754a06377d81259","subcat":"Harbor \/ Marina"},{"tcheckins":"0","name":"ZaZa","lat":"38.2485","lon":"21.7375","mastercat":"4d4b7105d754a06378d81259","subcat":"Gift Shop"},{"tcheckins":"0","name":"\u03a3\u03c5\u03bd\u03b4\u03b5\u03c4\u03ae\u03c1\u03b1\u03c2","lat":"38.2448","lon":"21.7373","mastercat":"4d4b7105d754a06374d81259","subcat":"Caf\u00e9"},{"tcheckins":"0","name":"\u03c0\u03b7\u03c1\u03bf\u03cd\u03bd\u03b9","lat":"38.2418","lon":"21.7314","mastercat":"4d4b7105d754a06374d81259","subcat":"Greek Restaurant"},{"tcheckins":"0","name":"\u0392\u03c5\u03b6\u03b1\u03bd\u03c4\u03b9\u03bd\u03cc","lat":"38.2468","lon":"21.7338","mastercat":"4d4b7105d754a06379d81259","subcat":"Hotel"},{"tcheckins":"0","name":"ORO Antico","lat":"38.2483","lon":"21.7358","mastercat":"4d4b7105d754a06374d81259","subcat":"Caf\u00e9"},{"tcheckins":"0","name":"\u03a0\u03bb\u03b1\u03c4\u03b5\u03af\u03b1 \u03a0\u03af\u03bd\u03b4\u03bf\u03c5","lat":"38.2454","lon":"21.731","mastercat":"4d4b7105d754a06377d81259","subcat":"Plaza"},{"tcheckins":"0","name":"H\u00f6st","lat":"38.2407","lon":"21.7351","mastercat":"4d4b7105d754a06374d81259","subcat":"Caf\u00e9"},{"tcheckins":"0","name":"\u03a0\u03b5\u03b6\u03cc\u03b4\u03c1\u03bf\u03bc\u03bf\u03c2 \u03a0\u03bf\u03c5\u03ba\u03b5\u03b2\u03af\u03bb","lat":"38.2492","lon":"21.7403","mastercat":"4d4b7105d754a06377d81259","subcat":"Pedestrian Plaza"},{"tcheckins":"0","name":"Coffeebrands","lat":"38.2465","lon":"21.7375","mastercat":"4d4b7105d754a06374d81259","subcat":"Coffee Shop"},{"tcheckins":"0","name":"Bara","lat":"38.2457","lon":"21.7324","mastercat":"4d4b7105d754a06374d81259","subcat":"Bar"},{"tcheckins":"0","name":"\u0394\u03b1\u03c3\u03cd\u03bb\u03bb\u03b9\u03bf","lat":"38.2482","lon":"21.745","mastercat":"4d4b7105d754a06377d81259","subcat":"Park"},{"tcheckins":"0","name":"\u03a3\u03c4\u03b1\u03b8\u03bc\u03cc\u03c2","lat":"38.2494","lon":"21.7346","mastercat":"4d4b7105d754a06374d81259","subcat":"Caf\u00e9"},{"tcheckins":"0","name":"\u0391\u03c1\u03c7\u03b9\u03ba\u03b7 \u03a3\u03c4\u03b1\u03c3\u03b7 \u039b\u03b5\u03c9\u03c6\u03bf\u03c1\u03b5\u03b9\u03bf\u03c5 6","lat":"38.248","lon":"21.7379","mastercat":"4d4b7105d754a06379d81259","subcat":"Bus Station"},{"tcheckins":"0","name":"Aquar\u03ad\u03bb\u03b1","lat":"38.2444","lon":"21.7373","mastercat":"4d4b7105d754a06374d81259","subcat":"Bistro"},{"tcheckins":"0","name":"Neon (\u039d\u03ad\u03bf\u03bd)","lat":"38.2428","lon":"21.7295","mastercat":"4d4b7105d754a06378d81259","subcat":"Gaming Cafe"},{"tcheckins":"0","name":"Saloon","lat":"38.2493","lon":"21.738","mastercat":"4d4b7105d754a06376d81259","subcat":"Beer Store"},{"tcheckins":"0","name":"\u039a\u03a4\u0395\u039b \u0396\u03b1\u03ba\u03cd\u03bd\u03b8\u03bf\u03c5","lat":"38.2461","lon":"21.7303","mastercat":"4d4b7105d754a06379d81259","subcat":"Bus Station"},{"tcheckins":"0","name":"Status Guo","lat":"38.2431","lon":"21.733","mastercat":"4d4b7105d754a06374d81259","subcat":"Caf\u00e9"},{"tcheckins":"0","name":"\u03a1\u03ae\u03b3\u03b1\u03c2","lat":"38.251","lon":"21.7375","mastercat":"4d4b7105d754a06374d81259","subcat":"Fast Food Restaurant"},{"tcheckins":"0","name":"\u03a0-\u03bf\u03b9\u03bd\u03cc\u03bb\u03bf\u03b3\u03b9\u03bf\u03bd","lat":"38.2454","lon":"21.7388","mastercat":"4d4b7105d754a06374d81259","subcat":"Restaurant"},{"tcheckins":"0","name":"Ginger","lat":"38.2453","lon":"21.7318","mastercat":"4d4b7105d754a06374d81259","subcat":"Restaurant"},{"tcheckins":"0","name":"Pizza Express","lat":"38.252","lon":"21.7428","mastercat":"4d4b7105d754a06374d81259","subcat":"Pizza Place"},{"tcheckins":"0","name":"Carte Postale","lat":"38.2451","lon":"21.7382","mastercat":"4d4b7105d754a06376d81259","subcat":"Pub"},{"tcheckins":"0","name":"\u0398\u03ad\u03b1\u03c4\u03c1\u03bf \u039b\u03b9\u03b8\u03bf\u03b3\u03c1\u03b1\u03c6\u03b5\u03af\u03bf\u03bd","lat":"38.2424","lon":"21.7296","mastercat":"4d4b7104d754a06370d81259","subcat":"Theater"},{"tcheckins":"0","name":"\u0391\u03ba\u03b1\u03bc\u03ac\u03c4\u03c1\u03b1","lat":"38.2483","lon":"21.7393","mastercat":"4d4b7105d754a06376d81259","subcat":"Caf\u00e9"},{"tcheckins":"0","name":"\u03a4\u03b7\u03bb\u03b9\u03b3\u03b1\u03b4\u03b7\u03c2","lat":"38.2489","lon":"21.7377","mastercat":"4d4b7105d754a06374d81259","subcat":"Bakery"},{"tcheckins":"0","name":"decco club Patras","lat":"38.2449","lon":"21.7314","mastercat":"4d4b7105d754a06376d81259","subcat":"Bar"},{"tcheckins":"0","name":"Stekino","lat":"38.2429","lon":"21.7327","mastercat":"4d4b7105d754a06374d81259","subcat":"Caf\u00e9"},{"tcheckins":"0","name":"\u039a\u03bf\u03c1\u03bd\u03b7\u03bb\u03af\u03b1","lat":"38.25","lon":"21.7388","mastercat":"4d4b7104d754a06370d81259","subcat":"Restaurant"},{"tcheckins":"0","name":"Glukanisos","lat":"38.2456","lon":"21.7391","mastercat":"4d4b7105d754a06374d81259","subcat":"Greek Restaurant"},{"tcheckins":"0","name":"Plaisio (\u03a0\u03bb\u03b1\u03af\u03c3\u03b9\u03bf)","lat":"38.2461","lon":"21.7315","mastercat":"4d4b7105d754a06378d81259","subcat":"Electronics Store"},{"tcheckins":"0","name":"\u039c\u03c5\u03bb\u03c9\u03bd\u03ac\u03c2","lat":"38.2408","lon":"21.736","mastercat":"4d4b7105d754a06374d81259","subcat":"Bakery"},{"tcheckins":"0","name":"Ritos","lat":"38.2519","lon":"21.7401","mastercat":"4d4b7105d754a06374d81259","subcat":"Bakery"},{"tcheckins":"0","name":"Vintage Club","lat":"38.2488","lon":"21.736","mastercat":"4d4b7105d754a06376d81259","subcat":"Nightclub"},{"tcheckins":"0","name":"\u0393\u03b9\u03ac\u03c6\u03ba\u03b1","lat":"38.2422","lon":"21.7343","mastercat":"4d4b7105d754a06376d81259","subcat":"Nightclub"},{"tcheckins":"0","name":"Beer Bar Q","lat":"38.2434","lon":"21.7296","mastercat":"4d4b7105d754a06376d81259","subcat":"Beer Garden"},{"tcheckins":"0","name":"\u03a1\u03b5\u03c6\u03b5\u03bd\u03ad\u03c2","lat":"38.2472","lon":"21.7393","mastercat":"4d4b7105d754a06376d81259","subcat":"Tsipouro Restaurant"},{"tcheckins":"0","name":"Kronos Supermarket","lat":"38.2463","lon":"21.7375","mastercat":"4d4b7105d754a06378d81259","subcat":"Supermarket"},{"tcheckins":"0","name":"\u0395\u039d\u03a4\u0395\u039b\u0392\u0391\u0399\u03a3","lat":"38.2467","lon":"21.7347","mastercat":"4d4b7105d754a06374d81259","subcat":"Dessert Shop"},{"tcheckins":"0","name":"Mousikon","lat":"38.2495","lon":"21.7377","mastercat":"4d4b7105d754a06374d81259","subcat":"Caf\u00e9"},{"tcheckins":"0","name":"Cafe Passage","lat":"38.247","lon":"21.7385","mastercat":"4d4b7105d754a06374d81259","subcat":"Caf\u00e9"},{"tcheckins":"0","name":"Canto","lat":"38.2462","lon":"21.733","mastercat":"4d4b7105d754a06376d81259","subcat":"Caf\u00e9"},{"tcheckins":"0","name":"\u0386\u03b4\u03c9\u03bd\u03b9\u03c2","lat":"38.2411","lon":"21.7358","mastercat":"4d4b7105d754a06374d81259","subcat":"Greek Restaurant"},{"tcheckins":"0","name":"CityLoft Boutique Hotel","lat":"38.2507","lon":"21.7411","mastercat":"4d4b7105d754a06379d81259","subcat":"Hotel"},{"tcheckins":"0","name":"\u03a6\u03b1\u03c3\u03cc\u03bb\u03bf\u03b9","lat":"38.2472","lon":"21.7393","mastercat":"4d4b7105d754a06374d81259","subcat":"Magirio"},{"tcheckins":"0","name":"\u039c\u03b1\u03af\u03b1\u03bd\u03b4\u03c1\u03bf\u03c2 Gym","lat":"38.2442","lon":"21.7357","mastercat":"4d4b7105d754a06378d81259","subcat":"Gym"},{"tcheckins":"0","name":"El GRECO art","lat":"38.2619","lon":"21.7391","mastercat":"4d4b7105d754a06374d81259","subcat":"Pizza Place"},{"tcheckins":"0","name":"\u0393\u03b5\u03bd\u03b9\u03ba\u03ae \u03a4\u03b1\u03c7\u03c5\u03b4\u03c1\u03bf\u03bc\u03b9\u03ba\u03ae","lat":"38.2436","lon":"21.7286","mastercat":"4d4b7105d754a06375d81259","subcat":"Shipping Store"},{"tcheckins":"0","name":"Papillon","lat":"38.2487","lon":"21.7376","mastercat":"4d4b7105d754a06374d81259","subcat":"Caf\u00e9"},{"tcheckins":"0","name":"\u039d\u03b1\u03c5\u03c0\u03b7\u03b3\u03b5\u03af\u03bf","lat":"38.2633","lon":"21.7398","mastercat":"4d4b7105d754a06374d81259","subcat":"Seafood Restaurant"},{"tcheckins":"0","name":"Playhouse","lat":"38.246","lon":"21.7332","mastercat":"4d4b7105d754a06378d81259","subcat":"Gaming Cafe"},{"tcheckins":"0","name":"\u03a1\u03bf\u03b6 \u03a0\u03ac\u03bd\u03b8\u03b7\u03c1\u03b1\u03c2","lat":"38.2421","lon":"21.7313","mastercat":"4d4b7105d754a06374d81259","subcat":"Pizza Place"},{"tcheckins":"0","name":"Pronovias Mixalakou","lat":"38.2464","lon":"21.733","mastercat":"4d4b7105d754a06378d81259","subcat":"Bridal Shop"},{"tcheckins":"0","name":"Beropoulos","lat":"38.2431","lon":"21.7346","mastercat":"4d4b7105d754a06378d81259","subcat":"Flea Market"},{"tcheckins":"0","name":"post it","lat":"38.2498","lon":"21.739","mastercat":"4d4b7105d754a06374d81259","subcat":"Caf\u00e9"},{"tcheckins":"0","name":"\u039f\u03bd\u03c4\u03ac\u03c2","lat":"38.2463","lon":"21.7394","mastercat":"4d4b7105d754a06374d81259","subcat":"Greek Restaurant"},{"tcheckins":"0","name":"\u03a0\u03b1\u03b9\u03b4\u03b9\u03ba\u03ae \u03a7\u03b1\u03c1\u03ac \u039c\u03b1\u03c1\u03af\u03bd\u03b1\u03c2","lat":"38.2599","lon":"21.7385","mastercat":"4d4b7105d754a06377d81259","subcat":"Playground"},{"tcheckins":"0","name":"\u03a6\u03ac\u03c1\u03bf\u03c2","lat":"38.2434","lon":"21.726","mastercat":"4d4b7105d754a06377d81259","subcat":"Lighthouse"},{"tcheckins":"0","name":"\u03a0\u03c1\u03b1\u03ba\u03c4\u03bf\u03c1\u03b5\u03af\u03bf \u039f\u03a0\u0391\u03a0","lat":"38.2485","lon":"21.7388","mastercat":"4d4b7104d754a06370d81259","subcat":"Betting Shop"},{"tcheckins":"0","name":"Meat Me","lat":"38.2459","lon":"21.7354","mastercat":"4d4b7105d754a06374d81259","subcat":"Souvlaki Shop"},{"tcheckins":"0","name":"\u039a\u03b1\u03c6\u03b5\u03ba\u03bf\u03c0\u03c4\u03b5\u03af\u03b1 \u039b\u03bf\u03c5\u03bc\u03af\u03b4\u03b7","lat":"38.2427","lon":"21.7313","mastercat":"4d4b7105d754a06374d81259","subcat":"Coffee Shop"},{"tcheckins":"0","name":"Vodafone","lat":"38.2498","lon":"21.7377","mastercat":"4d4b7105d754a06378d81259","subcat":"Mobile Phone Shop"},{"tcheckins":"0","name":"Admiral","lat":"38.2484","lon":"21.7371","mastercat":"4d4b7105d754a06378d81259","subcat":"Sporting Goods Shop"},{"tcheckins":"0","name":"Nike Store","lat":"38.248","lon":"21.736","mastercat":"4d4b7105d754a06378d81259","subcat":"Sporting Goods Shop"},{"tcheckins":"0","name":"Hendrix","lat":"38.2411","lon":"21.7342","mastercat":"4d4b7105d754a06374d81259","subcat":"Caf\u00e9"},{"tcheckins":"0","name":"\u03a1\u03b1\u03c5\u03c4\u03cc\u03c0\u03bf\u03c5\u03bb\u03bf\u03c2","lat":"38.2458","lon":"21.7389","mastercat":"4d4b7105d754a06374d81259","subcat":"Bakery"},{"tcheckins":"0","name":"\u03a4\u03ce\u03c1\u03b1 \u03a4\u03b1\u03c7\u03c5\u03c6\u03b1\u03b3\u03b5\u03af\u03bf","lat":"38.245","lon":"21.7391","mastercat":"4d4b7105d754a06374d81259","subcat":"Fast Food Restaurant"},{"tcheckins":"0","name":"\u039c\u03cc\u03bb\u03bf\u03c2 \u0391\u03b3\u03af\u03bf\u03c5 \u039d\u03b9\u03ba\u03bf\u03bb\u03ac\u03bf\u03c5","lat":"38.2493","lon":"21.7342","mastercat":"4d4b7105d754a06379d81259","subcat":"Pier"},{"tcheckins":"0","name":"Intimissimi","lat":"38.248","lon":"21.7372","mastercat":"4d4b7105d754a06378d81259","subcat":"Lingerie Store"},{"tcheckins":"0","name":"19-39","lat":"38.2434","lon":"21.737","mastercat":"4d4b7105d754a06376d81259","subcat":"Bar"},{"tcheckins":"0","name":"\u03a3\u03bf\u03cd\u03c3\u03bf\u03c5\u03c1\u03bf","lat":"38.2421","lon":"21.7311","mastercat":"4d4b7105d754a06374d81259","subcat":"Greek Restaurant"},{"tcheckins":"0","name":"Cava Romanos (\u039a\u03ac\u03b2\u03b1 \u03a1\u03c9\u03bc\u03ac\u03bd\u03bf\u03c2)","lat":"38.2494","lon":"21.7365","mastercat":"4d4b7105d754a06378d81259","subcat":"Liquor Store"},{"tcheckins":"0","name":"Cuppa cafe","lat":"38.2486","lon":"21.7365","mastercat":"4d4b7105d754a06376d81259","subcat":"Bar"},{"tcheckins":"0","name":"Studio 6","lat":"38.248","lon":"21.7347","mastercat":"4d4b7105d754a06378d81259","subcat":"Gym"},{"tcheckins":"0","name":"Swatch","lat":"38.2451","lon":"21.7306","mastercat":"4d4b7105d754a06378d81259","subcat":"Jewelry Store"},{"tcheckins":"0","name":"Mangiare","lat":"38.2409","lon":"21.7341","mastercat":"4d4b7105d754a06374d81259","subcat":"Fast Food Restaurant"},{"tcheckins":"0","name":"Coffee Island","lat":"38.2492","lon":"21.7385","mastercat":"4d4b7105d754a06374d81259","subcat":"Coffee Shop"},{"tcheckins":"0","name":"\u0394\u0399\u0397\u03a7\u039f","lat":"38.2448","lon":"21.7388","mastercat":"4d4b7105d754a06378d81259","subcat":"Music Store"},{"tcheckins":"0","name":"\u03a1\u03b1\u03c5\u03c4\u03cc\u03c0\u03bf\u03c5\u03bb\u03bf\u03c2","lat":"38.2455","lon":"21.733","mastercat":"4d4b7105d754a06374d81259","subcat":"Bakery"},{"tcheckins":"0","name":"\u03b4\u03b1\u03c3\u03c5\u03bb\u03bb\u03b9\u03bf (\u03c4\u03b1\u03c1\u03b1\u03c4\u03c3\u03b1)","lat":"38.2491","lon":"21.7454","mastercat":"4d4b7105d754a06376d81259","subcat":"Lounge"},{"tcheckins":"0","name":"\u0392\u03cc\u03c1\u03b5\u03b9\u03bf \u039b\u03b9\u03bc\u03ac\u03bd\u03b9 \u03a0\u03ac\u03c4\u03c1\u03b1\u03c2 (Northern Patras Port)","lat":"38.2503","lon":"21.7331","mastercat":"4d4b7105d754a06377d81259","subcat":"Harbor \/ Marina"},{"tcheckins":"0","name":"\u0393\u03b5\u03c1\u03bc\u03b1\u03bd\u03bf\u03c2","lat":"38.2474","lon":"21.7381","mastercat":"4d4b7105d754a06378d81259","subcat":"Mobile Phone Shop"},{"tcheckins":"0","name":"\u03a5\u03c0\u03bf\u03b2\u03c1\u03cd\u03c7\u03b9\u03bf \u0392\u03b1\u03bd\u03af\u03bb\u03b9\u03b1","lat":"38.2452","lon":"21.738","mastercat":"4d4b7105d754a06374d81259","subcat":"Kafenio"},{"tcheckins":"0","name":"\u03a4\u03bf \u03a3\u03c4\u03ad\u03ba\u03b9 \u03a4\u03bf\u03c5 \u03a0\u03b1\u03c4\u03ad\u03c1\u03b1","lat":"38.2448","lon":"21.7401","mastercat":"4d4b7105d754a06374d81259","subcat":"Greek Restaurant"},{"tcheckins":"0","name":"Sephora","lat":"38.2474","lon":"21.7359","mastercat":"4d4b7105d754a06378d81259","subcat":"Cosmetics Shop"},{"tcheckins":"0","name":"Lille Kaffe","lat":"38.2451","lon":"21.7316","mastercat":"4d4b7105d754a06374d81259","subcat":"Coffee Shop"},{"tcheckins":"0","name":"Coffeebrands","lat":"38.2497","lon":"21.7401","mastercat":"4d4b7105d754a06374d81259","subcat":"Coffee Shop"},{"tcheckins":"0","name":"Dirty Dancing","lat":"38.2465","lon":"21.7381","mastercat":"4d4b7104d754a06370d81259","subcat":"Dance Studio"},{"tcheckins":"0","name":"Vodafone","lat":"38.2447","lon":"21.7323","mastercat":"4d4b7105d754a06378d81259","subcat":"Mobile Phone Shop"},{"tcheckins":"0","name":"Go Active","lat":"38.2429","lon":"21.7352","mastercat":"4d4b7105d754a06378d81259","subcat":"Gym"},{"tcheckins":"0","name":"Xantres.gr","lat":"38.252","lon":"21.7415","mastercat":"4d4b7105d754a06378d81259","subcat":"Arts & Crafts Store"},{"tcheckins":"0","name":"\u0386\u03c3\u03c4\u03c5 \u03a8\u03b7\u03c4\u03bf\u03c0\u03c9\u03bb\u03b5\u03af\u03bf","lat":"38.2489","lon":"21.7373","mastercat":"4d4b7105d754a06374d81259","subcat":"Greek Restaurant"},{"tcheckins":"0","name":"\u039a\u03bf\u03bd\u03c3\u03ad\u03c1\u03b2\u03b1","lat":"38.2446","lon":"21.7378","mastercat":"4d4b7105d754a06374d81259","subcat":"Meze Restaurant"},{"tcheckins":"0","name":"Fitness Generation","lat":"38.2437","lon":"21.7301","mastercat":"4d4b7105d754a06378d81259","subcat":"Gym \/ Fitness Center"},{"tcheckins":"0","name":"\u03a0\u03b9\u03c0\u03b5\u03c1\u03af\u03c4\u03c3\u03b1","lat":"38.2459","lon":"21.7391","mastercat":"4d4b7105d754a06374d81259","subcat":"Restaurant"},{"tcheckins":"0","name":"Square 16","lat":"38.2404","lon":"21.7356","mastercat":"4d4b7105d754a06374d81259","subcat":"Restaurant"},{"tcheckins":"0","name":"Musical","lat":"38.2461","lon":"21.733","mastercat":"4d4b7105d754a06378d81259","subcat":"Record Shop"},{"tcheckins":"0","name":"\u03a0\u03b1\u03c4\u03c1\u03b1\u03ca\u03ba\u03cc \u0393\u03c5\u03bc\u03bd\u03b1\u03c3\u03c4\u03ae\u03c1\u03b9\u03bf","lat":"38.2412","lon":"21.7318","mastercat":"4d4b7105d754a06378d81259","subcat":"Gym \/ Fitness Center"},{"tcheckins":"0","name":"Arena","lat":"38.2522","lon":"21.737","mastercat":"4d4b7105d754a06376d81259","subcat":"Nightclub"},{"tcheckins":"0","name":"\u0392\u03c1\u03ac\u03c7\u03bf\u03c2","lat":"38.2452","lon":"21.7379","mastercat":"4d4b7105d754a06374d81259","subcat":"Greek Restaurant"},{"tcheckins":"0","name":"Cibo Cibo","lat":"38.2453","lon":"21.7319","mastercat":"4d4b7105d754a06376d81259","subcat":"Caf\u00e9"},{"tcheckins":"0","name":"\u03a8\u03b7\u03c4\u03b1\u03bb\u03ce\u03bd\u03b9\u03b1","lat":"38.2413","lon":"21.7363","mastercat":"4d4b7105d754a06374d81259","subcat":"Grilled Meat Restaurant"},{"tcheckins":"0","name":"lexis","lat":"38.2494","lon":"21.7383","mastercat":"4d4b7105d754a06378d81259","subcat":"Bookstore"},{"tcheckins":"0","name":"Classico","lat":"38.2481","lon":"21.7369","mastercat":"4d4b7105d754a06378d81259","subcat":"Shoe Store"},{"tcheckins":"0","name":"\u03a0\u03b5\u03b6\u03cc\u03b4\u03c1\u03bf\u03bc\u03bf\u03c2 \u03a4\u03c1\u03b9\u03ce\u03bd \u039d\u03b1\u03c5\u03ac\u03c1\u03c7\u03c9\u03bd","lat":"38.2425","lon":"21.7296","mastercat":"4d4b7105d754a06377d81259","subcat":"Pedestrian Plaza"},{"tcheckins":"0","name":"Planet","lat":"38.2476","lon":"21.7399","mastercat":"4d4b7105d754a06372d81259","subcat":"Gym"},{"tcheckins":"0","name":"\u0395\u03c4\u03b9\u03ba\u03ad\u03c4\u03b1","lat":"38.2453","lon":"21.7383","mastercat":"4d4b7105d754a06376d81259","subcat":"Wine Bar"},{"tcheckins":"0","name":"Porto Rico","lat":"38.2416","lon":"21.732","mastercat":"4d4b7105d754a06374d81259","subcat":"Pizza Place"},{"tcheckins":"0","name":"Kouloumpis Store","lat":"38.2495","lon":"21.7363","mastercat":"4d4b7105d754a06378d81259","subcat":"Clothing Store"},{"tcheckins":"0","name":"\u03a4\u03ad\u03c4\u03b6\u03b5\u03c1\u03b7\u03c2","lat":"38.2462","lon":"21.7393","mastercat":"4d4b7105d754a06374d81259","subcat":"Greek Restaurant"},{"tcheckins":"0","name":"SYN PLHN (\u03a3\u03a5\u039d \u03a0\u039b\u0397\u039d)","lat":"38.2461","lon":"21.7329","mastercat":"4d4b7105d754a06374d81259","subcat":"Caf\u00e9"},{"tcheckins":"0","name":"Cafe Bordeaux","lat":"38.2512","lon":"21.7409","mastercat":"4d4b7105d754a06374d81259","subcat":"Caf\u00e9"},{"tcheckins":"0","name":"\u0393\u03b1\u03bb\u03ac\u03bd\u03b7\u03c2","lat":"38.2491","lon":"21.7366","mastercat":"4d4b7105d754a06374d81259","subcat":"Snack Place"},{"tcheckins":"0","name":"Maison Grecque","lat":"38.2429","lon":"21.7349","mastercat":"4d4b7105d754a06379d81259","subcat":"Hotel"},{"tcheckins":"0","name":"\u0391\u03c0\u03ac\u03bd\u03b5\u03bc\u03bf","lat":"38.2448","lon":"21.7278","mastercat":"4d4b7105d754a06374d81259","subcat":"Seafood Restaurant"},{"tcheckins":"0","name":"Mikel Coffee Company","lat":"38.249","lon":"21.7383","mastercat":"4d4b7105d754a06374d81259","subcat":"Coffee Shop"},{"tcheckins":"0","name":"Avantaz","lat":"38.2456","lon":"21.731","mastercat":"4d4b7105d754a06376d81259","subcat":"Bar"},{"tcheckins":"0","name":"Caravel","lat":"38.2466","lon":"21.735","mastercat":"4d4b7105d754a06374d81259","subcat":"Dessert Shop"},{"tcheckins":"0","name":"\u03a0\u03b5\u03b6\u03cc\u03b4\u03c1\u03bf\u03bc\u03bf\u03c2 \u03a0\u03b1\u03bd\u03c4\u03b1\u03bd\u03ac\u03c3\u03c3\u03b7\u03c2","lat":"38.2458","lon":"21.7332","mastercat":"4d4b7105d754a06377d81259","subcat":"Pedestrian Plaza"},{"tcheckins":"0","name":"Due Piani","lat":"38.2475","lon":"21.7368","mastercat":"4d4b7105d754a06376d81259","subcat":"Bar"},{"tcheckins":"0","name":"\u039f\u03a0\u0391\u03a0 \u0394\u03b7\u03bc\u03b1\u03ba\u03bf\u03c0\u03bf\u03cd\u03bb\u03bf\u03c5 \u039c\u03b1\u03c1\u03af\u03b1","lat":"38.2458","lon":"21.7324","mastercat":"4d4b7105d754a06378d81259","subcat":"Betting Shop"},{"tcheckins":"0","name":"Redondo","lat":"38.2418","lon":"21.735","mastercat":"4d4b7105d754a06376d81259","subcat":"Bar"},{"tcheckins":"0","name":"manivela soul bar","lat":"38.2503","lon":"21.7398","mastercat":"4d4b7105d754a06376d81259","subcat":"Bar"},{"tcheckins":"0","name":"\u03a0\u03bf\u03c0 \u03a7\u03bf\u03c1\u03bd","lat":"38.2469","lon":"21.7394","mastercat":"4d4b7105d754a06376d81259","subcat":"Bar"},{"tcheckins":"0","name":"The Juice Bar","lat":"38.2451","lon":"21.734","mastercat":"4d4b7105d754a06374d81259","subcat":"Juice Bar"},{"tcheckins":"0","name":"OTTO","lat":"38.2447","lon":"21.7282","mastercat":"4d4b7105d754a06376d81259","subcat":"Lounge"},{"tcheckins":"0","name":"\u039c\u03c0\u03bf\u03c5\u03bb\u03bf\u03c5\u03bb\u03b7\u03c2","lat":"38.2491","lon":"21.7382","mastercat":"4d4b7105d754a06374d81259","subcat":"Bakery"},{"tcheckins":"0","name":"\u039b\u03bf\u03c4\u03c3\u03ac\u03c1\u03b7\u03c2","lat":"38.2461","lon":"21.7358","mastercat":"4d4b7105d754a06374d81259","subcat":"Dessert Shop"},{"tcheckins":"0","name":"Coffeebrands","lat":"38.2424","lon":"21.7309","mastercat":"4d4b7105d754a06374d81259","subcat":"Coffee Shop"},{"tcheckins":"0","name":"DVDator","lat":"38.2409","lon":"21.7349","mastercat":"4d4b7105d754a06378d81259","subcat":"Video Store"},{"tcheckins":"0","name":"Aperito","lat":"38.2485","lon":"21.7366","mastercat":"4d4b7105d754a06374d81259","subcat":"Greek Restaurant"},{"tcheckins":"0","name":"\u0393\u03bb\u03c5\u03ba\u03ac\u03bd\u03b9\u03c3\u03bf\u03c2","lat":"38.2458","lon":"21.7392","mastercat":"4d4b7105d754a06374d81259","subcat":"Meze Restaurant"},{"tcheckins":"0","name":"\u0391\u03c7\u03af\u03bb\u03bb\u03b5\u03b9\u03bf\u03bd","lat":"38.2449","lon":"21.7343","mastercat":"4d4b7105d754a06374d81259","subcat":"Magirio"},{"tcheckins":"0","name":"Poco-Poco Winter Escape","lat":"38.2601","lon":"21.7386","mastercat":"4d4b7105d754a06376d81259","subcat":"Bar"},{"tcheckins":"0","name":"Patra Train Station (\u03a3\u03b9\u03b4\u03b7\u03c1\u03bf\u03b4\u03c1\u03bf\u03bc\u03b9\u03ba\u03cc\u03c2 \u03a3\u03c4\u03b1\u03b8\u03bc\u03cc\u03c2 \u03a0\u03ac\u03c4\u03c1\u03b1\u03c2)","lat":"38.2496","lon":"21.735","mastercat":"4d4b7105d754a06379d81259","subcat":"Train Station"},{"tcheckins":"0","name":"\u03a6\u03b1\u03c1\u03bc\u03b1\u03ba\u03b5\u03af\u03bf \u039a\u03b1\u03bb\u03bb\u03b9\u03b2\u03c9\u03ba\u03ac","lat":"38.2478","lon":"21.7375","mastercat":"4d4b7105d754a06378d81259","subcat":"Drugstore \/ Pharmacy"},{"tcheckins":"0","name":"\u039f \u0393\u03b9\u03ac\u03bd\u03bd\u03b7\u03c2 - \u03a8\u03b7\u03c3\u03c4\u03b1\u03c1\u03b9\u03ac","lat":"38.2425","lon":"21.7306","mastercat":"4d4b7105d754a06374d81259","subcat":"Greek Restaurant"},{"tcheckins":"0","name":"Citrus","lat":"38.2493","lon":"21.7365","mastercat":"4d4b7105d754a06378d81259","subcat":"Sporting Goods Shop"},{"tcheckins":"0","name":"\u0398\u03ad\u03b1\u03c4\u03c1\u03bf ACT","lat":"38.2441","lon":"21.738","mastercat":"4d4b7104d754a06370d81259","subcat":"Theater"},{"tcheckins":"0","name":"\u0393\u03b1\u03bb\u03ac\u03bd\u03b7\u03c2","lat":"38.2471","lon":"21.7342","mastercat":"4d4b7105d754a06374d81259","subcat":"Bakery"},{"tcheckins":"0","name":"\u03a4\u03bf \u0391\u03b5\u03c1\u03cc\u03c3\u03c4\u03b1\u03c4\u03bf","lat":"38.2446","lon":"21.7312","mastercat":"4d4b7105d754a06374d81259","subcat":"Meze Restaurant"},{"tcheckins":"0","name":"\u0395\u03bb\u03bb\u03b7\u03bd\u03b9\u03ba\u03cc\u03bd","lat":"38.2407","lon":"21.7346","mastercat":"4d4b7105d754a06374d81259","subcat":"Caf\u00e9"},{"tcheckins":"0","name":"Diesel Store","lat":"38.2489","lon":"21.7377","mastercat":"4d4b7105d754a06378d81259","subcat":"Clothing Store"},{"tcheckins":"0","name":"\u03a3\u03bf\u03c5\u03c1\u03c9\u03c4\u03ae\u03c1\u03b9","lat":"38.2473","lon":"21.739","mastercat":"4d4b7105d754a06374d81259","subcat":"Greek Restaurant"},{"tcheckins":"0","name":"\u03a0\u03c1\u03b1\u03ba\u03c4\u03bf\u03c1\u03b5\u03af\u03bf \u039a\u03a4\u0395\u039b \u0391\u03b9\u03c4\u03c9\u03bb\u03bf\u03b1\u03ba\u03b1\u03c1\u03bd\u03b1\u03bd\u03af\u03b1\u03c2","lat":"38.2556","lon":"21.7379","mastercat":"4d4b7105d754a06379d81259","subcat":"Bus Station"},{"tcheckins":"0","name":"F\/B \u039a\u03b5\u03c6\u03b1\u03bb\u03bf\u03bd\u03b9\u03ac (Kefalonia)","lat":"38.2501","lon":"21.7324","mastercat":"4d4b7105d754a06379d81259","subcat":"Boat or Ferry"},{"tcheckins":"0","name":"Odd","lat":"38.2491","lon":"21.7379","mastercat":"4d4b7105d754a06378d81259","subcat":"Boutique"},{"tcheckins":"0","name":"\u039d\u03b1\u03c5\u03ac\u03c1\u03c7\u03c9\u03bd \u0393\u03b5\u03cd\u03c3\u03b5\u03b9\u03c2","lat":"38.2419","lon":"21.7312","mastercat":"4d4b7105d754a06374d81259","subcat":"Greek Restaurant"},{"tcheckins":"0","name":"Ristretto Cafe","lat":"38.2502","lon":"21.7359","mastercat":"4d4b7105d754a06374d81259","subcat":"Caf\u00e9"},{"tcheckins":"0","name":"\u0391\u03c1\u03b9\u03c3\u03c4\u03b5\u03af\u03b4\u03bf\u03c5","lat":"38.2458","lon":"21.7374","mastercat":"4d4b7105d754a06378d81259","subcat":"Bookstore"},{"tcheckins":"0","name":"Trion Simachon Square (\u03a0\u03bb\u03b1\u03c4\u03b5\u03af\u03b1 \u03a4\u03c1\u03b9\u03ce\u03bd \u03a3\u03c5\u03bc\u03bc\u03ac\u03c7\u03c9\u03bd)","lat":"38.2492","lon":"21.7352","mastercat":"4d4b7105d754a06377d81259","subcat":"Plaza"},{"tcheckins":"0","name":"\u03a3\u03cd\u03bd\u03bf\u03b4\u03bf\u03c2","lat":"38.2467","lon":"21.7328","mastercat":"4d4b7105d754a06374d81259","subcat":"Tsipouro Restaurant"},{"tcheckins":"0","name":"\u0391\u03bb\u03ac\u03bc\u03c0\u03c1\u03b1","lat":"38.2407","lon":"21.7338","mastercat":"4d4b7105d754a06374d81259","subcat":"Caf\u00e9"},{"tcheckins":"0","name":"Odyssey","lat":"38.2507","lon":"21.7404","mastercat":"4d4b7105d754a06378d81259","subcat":"Boutique"},{"tcheckins":"0","name":"Bijoux Night Club (Patra)","lat":"38.2464","lon":"21.7376","mastercat":"4d4b7105d754a06376d81259","subcat":"Nightclub"},{"tcheckins":"0","name":"B\u03c5\u03c3\u03c3\u03b9\u03bd\u03cc\u03ba\u03b7\u03c0\u03bf\u03c2","lat":"38.2456","lon":"21.7324","mastercat":"4d4b7105d754a06374d81259","subcat":"Caf\u00e9"},{"tcheckins":"0","name":"\u039a\u03c1\u03cc\u03bd\u03bf\u03c2","lat":"38.2409","lon":"21.7357","mastercat":"4d4b7105d754a06378d81259","subcat":"Grocery Store"},{"tcheckins":"0","name":"\u0395\u03ba\u03b4\u03cc\u03c3\u03b5\u03b9\u03c2 Gotsis","lat":"38.251","lon":"21.7393","mastercat":"4d4b7105d754a06378d81259","subcat":"Bookstore"},{"tcheckins":"0","name":"Civil","lat":"38.2492","lon":"21.7372","mastercat":"4d4b7105d754a06374d81259","subcat":"Restaurant"},{"tcheckins":"0","name":"\u0392\u03b1\u03c1\u03ad\u03bb\u03b9\u03b1","lat":"38.2447","lon":"21.7378","mastercat":"4d4b7105d754a06374d81259","subcat":"Greek Restaurant"},{"tcheckins":"0","name":"\u0391\u03bd\u03b4\u03c1\u03b9\u03ba\u03cc\u03c0\u03bf\u03c5\u03bb\u03bf\u03c2","lat":"38.2425","lon":"21.7297","mastercat":"4d4b7105d754a06378d81259","subcat":"Supermarket"},{"tcheckins":"0","name":"Factory flavours","lat":"38.2454","lon":"21.7361","mastercat":"4d4b7105d754a06374d81259","subcat":"Creperie"},{"tcheckins":"0","name":"\u0391\u03bb\u03bb\u03b1\u03c4\u03c5\u03c1\u03b9","lat":"38.2444","lon":"21.7318","mastercat":"4d4b7105d754a06376d81259","subcat":"Brewery"},{"tcheckins":"0","name":"\u03a0\u03b1\u03c5\u03bb\u03ae\u03c2","lat":"38.2411","lon":"21.7332","mastercat":"4d4b7105d754a06374d81259","subcat":"Mediterranean Restaurant"},{"tcheckins":"0","name":"Chaplin","lat":"38.2494","lon":"21.7375","mastercat":"4d4b7105d754a06374d81259","subcat":"Caf\u00e9"},{"tcheckins":"0","name":"\u03a0\u03bb\u03b1\u03c4\u03b5\u03af\u03b1 \u039c\u03b1\u03c1\u03ba\u03ac\u03c4\u03bf\u03c5","lat":"38.2451","lon":"21.7379","mastercat":"4d4b7105d754a06377d81259","subcat":"Plaza"},{"tcheckins":"0","name":"La Bodegueta","lat":"38.2466","lon":"21.7327","mastercat":"4d4b7105d754a06376d81259","subcat":"BBQ Joint"},{"tcheckins":"0","name":"Device","lat":"38.2487","lon":"21.7347","mastercat":"4d4b7105d754a06378d81259","subcat":"Mobile Phone Shop"},{"tcheckins":"0","name":"\u03a1\u03bf\u03c5\u03c0\u03b1\u03c2 hairshop","lat":"38.2503","lon":"21.7393","mastercat":"4d4b7105d754a06378d81259","subcat":"Cosmetics Shop"},{"tcheckins":"0","name":"Fresh Bar","lat":"38.247","lon":"21.7367","mastercat":"4d4b7105d754a06374d81259","subcat":"Caf\u00e9"},{"tcheckins":"0","name":"Navona Club di Oggi","lat":"38.2445","lon":"21.7373","mastercat":"4d4b7105d754a06376d81259","subcat":"Nightclub"},{"tcheckins":"0","name":"\u0398\u03c1\u03ac\u03ba\u03b1","lat":"38.243","lon":"21.7295","mastercat":"4d4b7105d754a06374d81259","subcat":"Greek Restaurant"},{"tcheckins":"0","name":"\u0392\u03b1\u03c3\u03b9\u03bb\u03cc\u03c0\u03bf\u03c5\u03bb\u03bf\u03c2","lat":"38.2481","lon":"21.7398","mastercat":"4d4b7105d754a06374d81259","subcat":"Bakery"},{"tcheckins":"0","name":"Xenos","lat":"38.2475","lon":"21.7371","mastercat":"4d4b7105d754a06378d81259","subcat":"Jewelry Store"},{"tcheckins":"0","name":"Salumeria","lat":"38.2457","lon":"21.7334","mastercat":"4d4b7105d754a06374d81259","subcat":"Mediterranean Restaurant"},{"tcheckins":"0","name":"\u03a0\u03b5\u03b9\u03c1\u03b1\u03c4\u03ad\u03c2","lat":"38.2414","lon":"21.733","mastercat":"4d4b7105d754a06374d81259","subcat":"Greek Restaurant"},{"tcheckins":"0","name":"Magazara","lat":"38.2499","lon":"21.7373","mastercat":"4d4b7105d754a06378d81259","subcat":"Gaming Cafe"},{"tcheckins":"0","name":"\u03a6\u03b1\u03c1\u03bc\u03b1\u03ba\u03b5\u03af\u03bf \u0399.\u03a1\u03ac\u03c0\u03c4\u03b7\u03c2 &amp; \u03a3\u0399\u0391 \u039f.\u0395.","lat":"38.2466","lon":"21.7397","mastercat":"4d4b7105d754a06378d81259","subcat":"Drugstore \/ Pharmacy"},{"tcheckins":"0","name":"Rf Coffe&amp; Drinks","lat":"38.2462","lon":"21.733","mastercat":"4d4b7105d754a06376d81259","subcat":"Bar"},{"tcheckins":"0","name":"\u03a3\u03c0\u03ac\u03c1\u03c4\u03b1\u03ba\u03bf\u03c2 Kickboxing","lat":"38.2423","lon":"21.7356","mastercat":"4d4b7105d754a06378d81259","subcat":"Gym \/ Fitness Center"},{"tcheckins":"0","name":"Sem's","lat":"38.2507","lon":"21.7408","mastercat":"4d4b7105d754a06374d81259","subcat":"Caf\u00e9"},{"tcheckins":"0","name":"Lexis","lat":"38.245","lon":"21.7355","mastercat":"4d4b7105d754a06378d81259","subcat":"Bookstore"},{"tcheckins":"0","name":"chillbox frozen yogurt","lat":"38.261","lon":"21.7392","mastercat":"4d4b7105d754a06374d81259","subcat":"Ice Cream Shop"},{"tcheckins":"0","name":"\u0392\u03b9\u03b2\u03bb\u03b9\u03bf\u03b8\u03ae\u03ba\u03b7","lat":"38.2431","lon":"21.7297","mastercat":"4d4b7105d754a06372d81259","subcat":"Library"},{"tcheckins":"0","name":"\u039c\u03c0\u03bf\u03ad\u03bc\u03b9\u03ba\u03bf","lat":"38.2467","lon":"21.7395","mastercat":"4d4b7105d754a06374d81259","subcat":"Restaurant"},{"tcheckins":"0","name":"smoke","lat":"38.2458","lon":"21.732","mastercat":"4d4b7105d754a06378d81259","subcat":"Smoke Shop"},{"tcheckins":"0","name":"\u039c\u03bf\u03c5\u03c3\u03b5\u03bb\u03af\u03bd","lat":"38.2468","lon":"21.7343","mastercat":"4d4b7105d754a06374d81259","subcat":"Dessert Shop"},{"tcheckins":"0","name":"Max Perry","lat":"38.2464","lon":"21.7333","mastercat":"4d4b7105d754a06374d81259","subcat":"Dessert Shop"},{"tcheckins":"0","name":"Music Station","lat":"38.2498","lon":"21.7376","mastercat":"4d4b7105d754a06378d81259","subcat":"Music Store"},{"tcheckins":"0","name":"LAB","lat":"38.245","lon":"21.7384","mastercat":"4d4b7105d754a06376d81259","subcat":"Lounge"},{"tcheckins":"0","name":"Metropolis","lat":"38.2443","lon":"21.7302","mastercat":"4d4b7104d754a06370d81259","subcat":"Concert Hall"},{"tcheckins":"0","name":"Goody's Burger House","lat":"38.2406","lon":"21.7352","mastercat":"4d4b7105d754a06374d81259","subcat":"Fast Food Restaurant"},{"tcheckins":"0","name":"\u039c\u03b1\u03b3\u03b5\u03b9\u03c1\u03b5\u03af\u03bf \u03c4\u03b7\u03c2 \u0391\u03b3\u03bf\u03c1\u03ac\u03c2","lat":"38.2503","lon":"21.7417","mastercat":"4d4b7105d754a06374d81259","subcat":"Magirio"},{"tcheckins":"0","name":"\u03a3\u03ba\u03ac\u03bb\u03b5\u03c2 \u0391\u03b3\u03af\u03bf\u03c5 \u039d\u03b9\u03ba\u03bf\u03bb\u03ac\u03bf\u03c5","lat":"38.2459","lon":"21.7388","mastercat":"4d4b7105d754a06379d81259","subcat":"Pedestrian Plaza"},{"tcheckins":"0","name":"\u03a4\u03bf \u03bf\u03c5\u03b6\u03b5\u03c1\u03af \u03c4\u03b7\u03c2 \u0391\u03bc\u03b1\u03bb\u03af\u03b1\u03c2","lat":"38.244","lon":"21.7359","mastercat":"4d4b7105d754a06374d81259","subcat":"Ouzeri"},{"tcheckins":"0","name":"Cielo","lat":"38.2618","lon":"21.7389","mastercat":"4d4b7105d754a06374d81259","subcat":"Caf\u00e9"},{"tcheckins":"0","name":"\u0399\u03c7\u03b8\u03c5\u03cc\u03c3\u03ba\u03b1\u03bb\u03b1","lat":"38.2443","lon":"21.7262","mastercat":"4d4b7105d754a06374d81259","subcat":"Seafood Restaurant"},{"tcheckins":"0","name":"Le Coq","lat":"38.2487","lon":"21.7379","mastercat":"4d4b7105d754a06374d81259","subcat":"Greek Restaurant"},{"tcheckins":"0","name":"\u039d\u03b5\u03c1\u03b1\u03c4\u03b6\u03b9\u03ad\u03c2","lat":"38.2424","lon":"21.7304","mastercat":"4d4b7105d754a06374d81259","subcat":"Greek Restaurant"},{"tcheckins":"0","name":"insieme","lat":"38.246","lon":"21.7327","mastercat":"4d4b7105d754a06374d81259","subcat":"Caf\u00e9"},{"tcheckins":"0","name":"3\u0391 \u0391\u03a1\u0391\u03a0\u0397\u03a3 market","lat":"38.2409","lon":"21.734","mastercat":"4d4b7105d754a06378d81259","subcat":"Supermarket"},{"tcheckins":"0","name":"\u039c\u03b9\u03c7\u03b1\u03b7\u03bb\u03af\u03b4\u03b7\u03c2","lat":"38.2482","lon":"21.738","mastercat":"4d4b7105d754a06378d81259","subcat":"Shoe Store"},{"tcheckins":"0","name":"\u03a7\u03ac\u03bd\u03c4\u03c1\u03b5\u03c2","lat":"38.2463","lon":"21.7394","mastercat":"4d4b7105d754a06374d81259","subcat":"Music Venue"},{"tcheckins":"0","name":"Jam\u00f3n","lat":"38.2442","lon":"21.7351","mastercat":"4d4b7105d754a06374d81259","subcat":"Spanish Restaurant"},{"tcheckins":"0","name":"Aperitivo 48","lat":"38.2595","lon":"21.7386","mastercat":"4d4b7105d754a06374d81259","subcat":"Bistro"},{"tcheckins":"0","name":"\u039c\u0399\u03a7\u0391\u0397\u039b\u0399\u0394\u0397\u03a3 shoes and more","lat":"38.248","lon":"21.7379","mastercat":"4d4b7105d754a06378d81259","subcat":"Adult Boutique"},{"tcheckins":"0","name":"Lennon","lat":"38.2458","lon":"21.7345","mastercat":"4d4b7105d754a06376d81259","subcat":"Gastropub"},{"tcheckins":"0","name":"\u039a\u03b9\u03ad\u03ba\u03ba\u03b1\u03c2","lat":"38.2428","lon":"21.7316","mastercat":"4d4b7105d754a06374d81259","subcat":"Bakery"},{"tcheckins":"0","name":"Beery Beery","lat":"38.2496","lon":"21.7375","mastercat":"4d4b7105d754a06374d81259","subcat":"Diner"},{"tcheckins":"0","name":"Wind","lat":"38.2484","lon":"21.7371","mastercat":"4d4b7105d754a06378d81259","subcat":"Mobile Phone Shop"},{"tcheckins":"0","name":"Fisico Health And Care","lat":"38.2481","lon":"21.734","mastercat":"4d4b7105d754a06378d81259","subcat":"Gym \/ Fitness Center"},{"tcheckins":"0","name":"\u039d\u03b7\u03c0\u03b9\u03b1\u03b3\u03c9\u03b3\u03b5\u03af\u03bf","lat":"38.2408","lon":"21.7355","mastercat":"4d4b7105d754a06374d81259","subcat":"Caf\u00e9"},{"tcheckins":"0","name":"\u03a7\u03c9\u03c1\u03af\u03c2 \u03a7\u03c1\u03cc\u03bd\u03bf (No Time)","lat":"38.2491","lon":"21.737","mastercat":"4d4b7105d754a06374d81259","subcat":"Coffee Shop"},{"tcheckins":"0","name":"\u039c\u03b1\u03c1\u03ba\u03ac\u03c4\u03bf","lat":"38.2445","lon":"21.7375","mastercat":"4d4b7105d754a06374d81259","subcat":"Greek Restaurant"},{"tcheckins":"0","name":"\u03a8\u03b7\u03c4\u03cc\u03c0\u03bf\u03bb\u03b9\u03c2","lat":"38.2464","lon":"21.7325","mastercat":"4d4b7105d754a06374d81259","subcat":"Souvlaki Shop"},{"tcheckins":"0","name":"Pas Mal","lat":"38.2603","lon":"21.7386","mastercat":"4d4b7105d754a06374d81259","subcat":"Caf\u00e9"},{"tcheckins":"0","name":"\u0394\u03b9\u03bf\u03bd\u03c5\u03c3\u03b9\u03bf\u03c2 \u03a3\u03bf\u03bb\u03c9\u03bc\u03bf\u03c2","lat":"38.2493","lon":"21.7334","mastercat":"4d4b7105d754a06379d81259","subcat":"Boat or Ferry"},{"tcheckins":"0","name":"Fou Cafe","lat":"38.2488","lon":"21.7376","mastercat":"4d4b7105d754a06376d81259","subcat":"Bar"},{"tcheckins":"0","name":"\u03a0\u03bb\u03b1\u03c4\u03b5\u03af\u03b1 \u0391\u03b3\u03af\u03bf\u03c5 \u0393\u03b5\u03c9\u03c1\u03b3\u03af\u03bf\u03c5","lat":"38.2433","lon":"21.7376","mastercat":"4d4b7105d754a06377d81259","subcat":"Plaza"},{"tcheckins":"0","name":"\u039c\u03b5\u03b6\u03b5\u03b4\u03bf\u03c4\u03b5\u03c7\u03bd\u03b5\u03af\u03bf\u03bd","lat":"38.2422","lon":"21.7309","mastercat":"4d4b7105d754a06374d81259","subcat":"Meze Restaurant"},{"tcheckins":"0","name":"marioneta \/ \u03bc\u03b1\u03c1\u03b9\u03bf\u03bd\u03ad\u03c4\u03b1","lat":"38.2502","lon":"21.7372","mastercat":"4d4b7105d754a06376d81259","subcat":"Bar"},{"tcheckins":"0","name":"\u039b\u03b5\u03c9\u03c6\u03bf\u03c1\u03b5\u03b9\u03bf \u039f\u03a3\u0395 \u03a0\u03b1\u03c4\u03c1\u03b1-\u039a\u03b9\u03b1\u03c4\u03bf Express","lat":"38.2496","lon":"21.735","mastercat":"4d4b7105d754a06379d81259","subcat":"Moving Target"},{"tcheckins":"0","name":"Patras Tango Academia","lat":"38.2462","lon":"21.7333","mastercat":"4d4b7104d754a06370d81259","subcat":"Dance Studio"},{"tcheckins":"0","name":"Queen","lat":"38.2406","lon":"21.7349","mastercat":"4d4b7105d754a06376d81259","subcat":"Caf\u00e9"},{"tcheckins":"0","name":"Goody's Burger House Patras","lat":"38.2488","lon":"21.7378","mastercat":"4d4b7105d754a06374d81259","subcat":"Burger Joint"},{"tcheckins":"0","name":"\u0394\u03bf\u03cd\u03b2\u03c1\u03b7\u03c2","lat":"38.2467","lon":"21.737","mastercat":"4d4b7105d754a06378d81259","subcat":"Electronics Store"},{"tcheckins":"0","name":"\u03a0\u03b5\u03c1\u03af\u03c0\u03bf\u03c5","lat":"38.2474","lon":"21.7381","mastercat":"4d4b7105d754a06374d81259","subcat":"Caf\u00e9"},{"tcheckins":"0","name":"Coffebrands Molos","lat":"38.2493","lon":"21.7342","mastercat":"4d4b7105d754a06374d81259","subcat":"Coffee Shop"},{"tcheckins":"0","name":"Esthetica Line","lat":"38.2482","lon":"21.7378","mastercat":"4d4b7105d754a06378d81259","subcat":"Spa or Massage"},{"tcheckins":"0","name":"Wok Around","lat":"38.2451","lon":"21.7367","mastercat":"4d4b7105d754a06374d81259","subcat":"Chinese Restaurant"},{"tcheckins":"0","name":"GeLatino","lat":"38.2425","lon":"21.7305","mastercat":"4d4b7105d754a06374d81259","subcat":"Ice Cream Shop"},{"tcheckins":"0","name":"Signore","lat":"38.2488","lon":"21.7349","mastercat":"4d4b7105d754a06374d81259","subcat":"Pizza Place"},{"tcheckins":"0","name":"\u039e\u03b5\u03bd\u03bf\u03b4\u03bf\u03c7\u03b5\u03af\u03bf El Greco","lat":"38.2458","lon":"21.7312","mastercat":"4d4b7105d754a06379d81259","subcat":"Hotel"},{"tcheckins":"0","name":"Bocas","lat":"38.2504","lon":"21.7386","mastercat":"4d4b7105d754a06376d81259","subcat":"Gastropub"},{"tcheckins":"0","name":"Espressionist Cafe","lat":"38.2447","lon":"21.7388","mastercat":"4d4b7105d754a06374d81259","subcat":"Caf\u00e9"},{"tcheckins":"0","name":"Blue Cafe","lat":"38.2415","lon":"21.7358","mastercat":"4d4b7105d754a06374d81259","subcat":"Caf\u00e9"},{"tcheckins":"0","name":"\u03a0\u03bb\u03b1\u03c4\u03b5\u03af\u03b1 \u03a0\u03c5\u03c1\u03bf\u03c3\u03b2\u03b5\u03c3\u03c4\u03b5\u03af\u03bf\u03c5","lat":"38.2519","lon":"21.7427","mastercat":"4d4b7105d754a06377d81259","subcat":"Plaza"},{"tcheckins":"0","name":"marmelada","lat":"38.2493","lon":"21.7372","mastercat":"4d4b7105d754a06376d81259","subcat":"Caf\u00e9"},{"tcheckins":"0","name":"More Steps Naja","lat":"38.2441","lon":"21.7376","mastercat":"4d4b7105d754a06376d81259","subcat":"Bar"},{"tcheckins":"0","name":"Seven Spot","lat":"38.243","lon":"21.7303","mastercat":"4d4b7105d754a06378d81259","subcat":"Video Store"},{"tcheckins":"0","name":"\u03a3\u03c4\u03ad\u03ba\u03b9 \u0398\u03b5\u03b1\u03c4\u03c1\u03b9\u03ba\u03ae\u03c2 \u039f\u03bc\u03ac\u03b4\u03b1\u03c2 \u03a5\u03c0\u03bf\u03ba\u03c1\u03b9\u03c4\u03ce\u03bd","lat":"38.248","lon":"21.7398","mastercat":"4d4b7104d754a06370d81259","subcat":"Theater"},{"tcheckins":"0","name":"Admiral","lat":"38.2486","lon":"21.7388","mastercat":"4d4b7105d754a06378d81259","subcat":"Sporting Goods Shop"},{"tcheckins":"0","name":"Kasper","lat":"38.2456","lon":"21.731","mastercat":"4d4b7105d754a06374d81259","subcat":"Fast Food Restaurant"},{"tcheckins":"0","name":"\u039a\u03bf\u03cd\u03bd\u03b9\u03b5\u03c2 \u03c4\u03b7\u03c2 \u03a4\u03c1\u03b9\u03ce\u03bd \u039d\u03b1\u03c5\u03ac\u03c1\u03c7\u03c9\u03bd","lat":"38.2413","lon":"21.7327","mastercat":"4d4b7105d754a06377d81259","subcat":"Playground"},{"tcheckins":"0","name":"Patras Palace","lat":"38.2517","lon":"21.737","mastercat":"4d4b7105d754a06379d81259","subcat":"Hotel"},{"tcheckins":"0","name":"butter batlers","lat":"38.2469","lon":"21.7379","mastercat":"4d4b7105d754a06374d81259","subcat":"Creperie"},{"tcheckins":"0","name":"Terra Bistro","lat":"38.2449","lon":"21.7312","mastercat":"4d4b7105d754a06374d81259","subcat":"Mediterranean Restaurant"},{"tcheckins":"0","name":"\u039d\u03c4\u03bf\u03cd\u03b5\u03c4\u03bf","lat":"38.2427","lon":"21.7345","mastercat":"4d4b7105d754a06374d81259","subcat":"Fast Food Restaurant"},{"tcheckins":"0","name":"Cafedromeio","lat":"38.2498","lon":"21.7391","mastercat":"4d4b7105d754a06374d81259","subcat":"Breakfast Spot"},{"tcheckins":"0","name":"Stretto","lat":"38.2484","lon":"21.737","mastercat":"4d4b7105d754a06376d81259","subcat":"Caf\u00e9"},{"tcheckins":"0","name":"\u039d\u03cc\u03c4\u03bf\u03c2 Jazz Bar","lat":"38.2446","lon":"21.7353","mastercat":"4d4b7104d754a06370d81259","subcat":"Bar"},{"tcheckins":"0","name":"El Greco","lat":"38.2426","lon":"21.7303","mastercat":"4d4b7105d754a06374d81259","subcat":"Pizza Place"},{"tcheckins":"0","name":"Olympic Star Hotel Patras","lat":"38.2467","lon":"21.7377","mastercat":"4d4b7105d754a06379d81259","subcat":"Hotel"},{"tcheckins":"0","name":"Coffeebrands","lat":"38.2467","lon":"21.7375","mastercat":"4d4b7105d754a06374d81259","subcat":"Caf\u00e9"},{"tcheckins":"0","name":"\u039b\u03bf\u03c4\u03c3\u03ac\u03c1\u03b7\u03c2","lat":"38.2442","lon":"21.732","mastercat":"4d4b7105d754a06378d81259","subcat":"Dessert Shop"},{"tcheckins":"0","name":"Dansarte","lat":"38.2521","lon":"21.7371","mastercat":"4d4b7104d754a06370d81259","subcat":"Dance Studio"},{"tcheckins":"0","name":"Brasserie Ritterhof","lat":"38.2449","lon":"21.7378","mastercat":"4d4b7105d754a06374d81259","subcat":"Brewery"},{"tcheckins":"0","name":"Gala Espresso Bar","lat":"38.2457","lon":"21.732","mastercat":"4d4b7105d754a06376d81259","subcat":"Bar"},{"tcheckins":"0","name":"Constantino Creperie","lat":"38.2464","lon":"21.7348","mastercat":"4d4b7105d754a06374d81259","subcat":"Creperie"},{"tcheckins":"0","name":"Capital Friends cafe","lat":"38.2493","lon":"21.7396","mastercat":"4d4b7105d754a06374d81259","subcat":"Caf\u00e9"},{"tcheckins":"0","name":"Zucchero","lat":"38.2483","lon":"21.7371","mastercat":"4d4b7105d754a06374d81259","subcat":"Caf\u00e9"},{"tcheckins":"0","name":"\u0392\u03cc\u03c3\u03c0\u03bf\u03c1\u03bf\u03c2","lat":"38.2441","lon":"21.7351","mastercat":"4d4b7105d754a06374d81259","subcat":"Tsipouro Restaurant"},{"tcheckins":"0","name":"\u0395\u03bd \u03a0\u03bb\u03c9","lat":"38.2622","lon":"21.7392","mastercat":"4d4b7105d754a06374d81259","subcat":"Greek Restaurant"},{"tcheckins":"0","name":"\u039b\u03b1\u03b2\u03cd\u03c1\u03b9\u03bd\u03b8\u03bf\u03c2","lat":"38.249","lon":"21.7401","mastercat":"4d4b7105d754a06374d81259","subcat":"Greek Restaurant"},{"tcheckins":"0","name":"Brasserie 64","lat":"38.2633","lon":"21.7395","mastercat":"4d4b7105d754a06374d81259","subcat":"Caf\u00e9"},{"tcheckins":"0","name":"\u0394\u03b7\u03bc\u03bf\u03c4\u03b9\u03ba\u03cc \u0398\u03ad\u03b1\u03c4\u03c1\u03bf \u0391\u03c0\u03cc\u03bb\u03bb\u03c9\u03bd","lat":"38.2463","lon":"21.7353","mastercat":"4d4b7104d754a06370d81259","subcat":"Theater"},{"tcheckins":"0","name":"Apple Cafe","lat":"38.2458","lon":"21.7332","mastercat":"4d4b7105d754a06374d81259","subcat":"Caf\u00e9"},{"tcheckins":"0","name":"Tomo's Open Kitchen Bar","lat":"38.2413","lon":"21.733","mastercat":"4d4b7105d754a06374d81259","subcat":"Mediterranean Restaurant"},{"tcheckins":"0","name":"\u039a\u03bf\u03b9\u03bd\u03c9\u03bd\u03b9\u03b1 \u03a9\u03c1\u03b1 \u039c\u03b7\u03b4\u03b5\u03bd","lat":"38.2466","lon":"21.7323","mastercat":"4d4b7105d754a06374d81259","subcat":"Greek Restaurant"},{"tcheckins":"0","name":"\u039f\u03b9 \u03a0\u03cd\u03bb\u03b5\u03c2 \u03a4\u03c9\u03bd \u0393\u03b5\u03cd\u03c3\u03b5\u03c9\u03bd","lat":"38.2408","lon":"21.7355","mastercat":"4d4b7105d754a06374d81259","subcat":"Restaurant"},{"tcheckins":"0","name":"\u03a3\u03b9\u03bd\u03b9\u03ac\u03bb\u03bf","lat":"38.247","lon":"21.7389","mastercat":"4d4b7105d754a06374d81259","subcat":"Meze Restaurant"},{"tcheckins":"0","name":"Beetle","lat":"38.244","lon":"21.7338","mastercat":"4d4b7105d754a06376d81259","subcat":"Bar"},{"tcheckins":"0","name":"\u0392\u03c1\u03b1\u03c7\u03ac\u03ba\u03b9\u03b1 \u039c\u03b1\u03c1\u03af\u03bd\u03b1\u03c2","lat":"38.2598","lon":"21.7385","mastercat":"4d4b7105d754a06377d81259","subcat":"Harbor \/ Marina"},{"tcheckins":"0","name":"W Nightclub Patras - Downtown","lat":"38.2448","lon":"21.7284","mastercat":"4d4b7105d754a06376d81259","subcat":"Nightclub"},{"tcheckins":"0","name":"Atlas Sport","lat":"38.2478","lon":"21.7384","mastercat":"4d4b7105d754a06378d81259","subcat":"Boutique"},{"tcheckins":"0","name":"Kalam\u03acki Bar","lat":"38.2467","lon":"21.7346","mastercat":"4d4b7105d754a06374d81259","subcat":"Souvlaki Shop"},{"tcheckins":"0","name":"Forthnet Shop (\u039a\u03b1\u03c4\u03ac\u03c3\u03c4\u03b7\u03bc\u03b1 \u03a0\u03b1\u03c4\u03c1\u03ce\u03bd, \u039c\u03b1\u03b9\u03b6\u03ce\u03bd\u03bf\u03c2)","lat":"38.2433","lon":"21.7308","mastercat":"4d4b7105d754a06378d81259","subcat":"Electronics Store"},{"tcheckins":"0","name":"Carrefour Express","lat":"38.2505","lon":"21.7378","mastercat":"4d4b7105d754a06378d81259","subcat":"Grocery Store"},{"tcheckins":"0","name":"Coffeebrands","lat":"38.2506","lon":"21.7417","mastercat":"4d4b7105d754a06374d81259","subcat":"Coffee Shop"},{"tcheckins":"0","name":"andrikopoulos Psila Alwnia","lat":"38.2398","lon":"21.7339","mastercat":"4d4b7105d754a06378d81259","subcat":"Grocery Store"},{"tcheckins":"0","name":"Folli Follie Store","lat":"38.2484","lon":"21.7369","mastercat":"4d4b7105d754a06378d81259","subcat":"Jewelry Store"},{"tcheckins":"0","name":"\u03a4\u03ad\u03bd\u03c4\u03b6\u03b5\u03c1\u03b7\u03c2","lat":"38.2465","lon":"21.7394","mastercat":"4d4b7105d754a06374d81259","subcat":"Meze Restaurant"},{"tcheckins":"0","name":"Way Out","lat":"38.2434","lon":"21.7346","mastercat":"4d4b7105d754a06374d81259","subcat":"Caf\u00e9"},{"tcheckins":"0","name":"\u0394\u03c9\u03b4\u03ce\u03bd\u03b7","lat":"38.2607","lon":"21.7387","mastercat":"4d4b7105d754a06374d81259","subcat":"Ice Cream Shop"},{"tcheckins":"0","name":"F\/B \u0395\u03c0\u03c4\u03ac\u03bd\u03b7\u03c3\u03bf\u03c2 (Eptanisos)","lat":"38.2493","lon":"21.7331","mastercat":"4d4b7105d754a06379d81259","subcat":"Boat or Ferry"},{"tcheckins":"0","name":"\u039a\u03ae\u03c0\u03bf\u03c2","lat":"38.2431","lon":"21.7373","mastercat":"4d4b7105d754a06374d81259","subcat":"Restaurant"},{"tcheckins":"0","name":"Bake N' Roll","lat":"38.2426","lon":"21.7309","mastercat":"4d4b7105d754a06374d81259","subcat":"Bakery"},{"tcheckins":"0","name":"Signore","lat":"38.2462","lon":"21.733","mastercat":"4d4b7105d754a06374d81259","subcat":"Italian Restaurant"},{"tcheckins":"0","name":"ACS","lat":"38.2469","lon":"21.7327","mastercat":"4d4b7105d754a06375d81259","subcat":"Shipping Store"},{"tcheckins":"0","name":"El Mundo","lat":"38.2407","lon":"21.735","mastercat":"4d4b7105d754a06376d81259","subcat":"Bar"},{"tcheckins":"0","name":"\u039f\u03b4\u03cc\u03c2 \u03c4\u03c9\u03bd \u03bf\u03bd\u03b5\u03af\u03c1\u03c9\u03bd","lat":"38.2492","lon":"21.7399","mastercat":"4d4b7105d754a06374d81259","subcat":"Caf\u00e9"},{"tcheckins":"0","name":"\u039a\u03b1\u03c4\u03ac\u03c3\u03c4\u03b7\u03bc\u03b1 Forthnet - \u03a0\u03ac\u03c4\u03c1\u03b1 (\u039a\u03b1\u03bd\u03b1\u03ba\u03ac\u03c1\u03b7)","lat":"38.2466","lon":"21.7384","mastercat":"4d4b7105d754a06378d81259","subcat":"Electronics Store"},{"tcheckins":"0","name":"Molos Cafe","lat":"38.2505","lon":"21.7324","mastercat":"4d4b7105d754a06374d81259","subcat":"Caf\u00e9"},{"tcheckins":"0","name":"praktoreio opap stathopoulos","lat":"38.2485","lon":"21.7388","mastercat":"4d4b7104d754a06370d81259","subcat":"Betting Shop"},{"tcheckins":"0","name":"\u03a0\u03c1\u03c9\u03c4\u03bf\u03c0\u03bf\u03c1\u03af\u03b1","lat":"38.2453","lon":"21.7363","mastercat":"4d4b7105d754a06378d81259","subcat":"Bookstore"},{"tcheckins":"0","name":"Caf\u00e9 Del Bar","lat":"38.2423","lon":"21.731","mastercat":"4d4b7105d754a06376d81259","subcat":"Bar"},{"tcheckins":"0","name":"Astir Patras Hotel","lat":"38.2504","lon":"21.7368","mastercat":"4d4b7105d754a06379d81259","subcat":"Hotel"},{"tcheckins":"0","name":"Prime Timers","lat":"38.2491","lon":"21.7379","mastercat":"4d4b7105d754a06378d81259","subcat":"Clothing Store"},{"tcheckins":"0","name":"Collective","lat":"38.2474","lon":"21.7355","mastercat":"4d4b7105d754a06378d81259","subcat":"Clothing Store"},{"tcheckins":"0","name":"Vodafone","lat":"38.2457","lon":"21.7312","mastercat":"4d4b7105d754a06378d81259","subcat":"Mobile Phone Shop"},{"tcheckins":"0","name":"Joy","lat":"38.2497","lon":"21.7394","mastercat":"4d4b7105d754a06374d81259","subcat":"Caf\u00e9"},{"tcheckins":"0","name":"\u03a6\u03a9\u039b\u0399\u0391","lat":"38.2467","lon":"21.7374","mastercat":"4d4b7105d754a06374d81259","subcat":"Greek Restaurant"},{"tcheckins":"0","name":"DA VINCI","lat":"38.2454","lon":"21.7313","mastercat":"4d4b7105d754a06374d81259","subcat":"Dessert Shop"},{"tcheckins":"0","name":"Palazzo di masa","lat":"38.2424","lon":"21.7352","mastercat":"4d4b7105d754a06374d81259","subcat":"Fast Food Restaurant"},{"tcheckins":"0","name":"Karolou Str.","lat":"38.2518","lon":"21.7403","mastercat":"4d4b7105d754a06376d81259","subcat":"Caf\u00e9"},{"tcheckins":"0","name":"Arithmitiri","lat":"38.2493","lon":"21.7372","mastercat":"4d4b7105d754a06374d81259","subcat":"Souvlaki Shop"},{"tcheckins":"0","name":"\u03a0\u03b5\u03b6\u03cc\u03b4\u03c1\u03bf\u03bc\u03bf\u03c2 \u0397\u03c6\u03b1\u03af\u03c3\u03c4\u03bf\u03c5","lat":"38.2444","lon":"21.7375","mastercat":"4d4b7105d754a06377d81259","subcat":"Pedestrian Plaza"},{"tcheckins":"0","name":"Cafe Del Mar","lat":"38.2431","lon":"21.7293","mastercat":"4d4b7105d754a06374d81259","subcat":"Caf\u00e9"},{"tcheckins":"0","name":"baobab","lat":"38.2483","lon":"21.7399","mastercat":"4d4b7105d754a06376d81259","subcat":"Bar"},{"tcheckins":"0","name":"Marie Palace","lat":"38.2457","lon":"21.7308","mastercat":"4d4b7105d754a06379d81259","subcat":"Hotel"},{"tcheckins":"0","name":"chillbox frozen yogurt","lat":"38.2465","lon":"21.7335","mastercat":"4d4b7105d754a06374d81259","subcat":"Frozen Yogurt"},{"tcheckins":"0","name":"Code cafe","lat":"38.2456","lon":"21.7323","mastercat":"4d4b7105d754a06374d81259","subcat":"Caf\u00e9"},{"tcheckins":"0","name":"Rebel","lat":"38.2416","lon":"21.7324","mastercat":"4d4b7105d754a06376d81259","subcat":"Bar"},{"tcheckins":"0","name":"Separe Cafe","lat":"38.2502","lon":"21.7387","mastercat":"4d4b7105d754a06376d81259","subcat":"Bar"},{"tcheckins":"0","name":"\u03a0\u03bb\u03b1\u03c4\u03b5\u03af\u03b1 25\u03b7\u03c2 \u039c\u03b1\u03c1\u03c4\u03af\u03bf\u03c5 (\u0391\u03b3\u03af\u03bf\u03c5 \u0393\u03b5\u03c9\u03c1\u03b3\u03af\u03bf\u03c5)","lat":"38.2448","lon":"21.738","mastercat":"4d4b7105d754a06377d81259","subcat":"Plaza"},{"tcheckins":"0","name":"Philosophy","lat":"38.2464","lon":"21.7328","mastercat":"4d4b7105d754a06374d81259","subcat":"Caf\u00e9"},{"tcheckins":"0","name":"PAPOULIAS Donuts","lat":"38.2416","lon":"21.7359","mastercat":"4d4b7105d754a06374d81259","subcat":"Donut Shop"},{"tcheckins":"0","name":"Mr. Burger","lat":"38.2496","lon":"21.7364","mastercat":"4d4b7105d754a06374d81259","subcat":"Burger Joint"},{"tcheckins":"0","name":"\u03a0\u03bf\u03bb\u03cd\u03b5\u03b4\u03c1\u03bf","lat":"38.2452","lon":"21.736","mastercat":"4d4b7105d754a06378d81259","subcat":"Bookstore"},{"tcheckins":"0","name":"\u039c\u03cd\u03b8\u03bf\u03c2","lat":"38.2432","lon":"21.7293","mastercat":"4d4b7105d754a06374d81259","subcat":"Greek Restaurant"},{"tcheckins":"0","name":"\u03a4\u03bf \u03c0\u03b5\u03c4\u03c1\u03b9\u03bd\u03bf \u03c4\u03bf\u03c5 \u03b1\u03bd\u03b4\u03c1\u03b5\u03b1","lat":"38.2474","lon":"21.7405","mastercat":"4d4b7105d754a06374d81259","subcat":"Souvlaki Shop"},{"tcheckins":"0","name":"\u03a4\u03bf \u03c7\u03c9\u03c1\u03b9\u03cc \u03bc\u03b1\u03c2 \u03c4\u03bf \u03a3\u03bf\u03c0\u03bf\u03c4\u03cc","lat":"38.2449","lon":"21.7379","mastercat":"4d4b7105d754a06376d81259","subcat":"Kafenio"},{"tcheckins":"0","name":"Disco Room","lat":"38.2472","lon":"21.7328","mastercat":"4d4b7105d754a06376d81259","subcat":"Nightclub"},{"tcheckins":"0","name":"90 \u03a1\u03b1\u03ba\u03ac\u03b4\u03b9\u03ba\u03bf","lat":"38.2416","lon":"21.7323","mastercat":"4d4b7105d754a06374d81259","subcat":"Meze Restaurant"},{"tcheckins":"0","name":"Zoomserie","lat":"38.2506","lon":"21.7379","mastercat":"4d4b7105d754a06374d81259","subcat":"Dessert Shop"},{"tcheckins":"0","name":"\u03a1\u03b5\u03bc\u03b5\u03b6\u03ad","lat":"38.2445","lon":"21.738","mastercat":"4d4b7105d754a06376d81259","subcat":"Bar"},{"tcheckins":"0","name":"Retro","lat":"38.2452","lon":"21.7323","mastercat":"4d4b7105d754a06374d81259","subcat":"Caf\u00e9"},{"tcheckins":"0","name":"Family","lat":"38.2426","lon":"21.7348","mastercat":"4d4b7105d754a06374d81259","subcat":"Fast Food Restaurant"},{"tcheckins":"0","name":"Cava Romanos (\u039a\u03ac\u03b2\u03b1 \u03a1\u03c9\u03bc\u03ac\u03bd\u03bf\u03c2)","lat":"38.2508","lon":"21.741","mastercat":"4d4b7105d754a06378d81259","subcat":"Liquor Store"},{"tcheckins":"0","name":"\u0391\u03bd\u03b1\u03c4\u03bf\u03bb\u03ae","lat":"38.2425","lon":"21.7348","mastercat":"4d4b7105d754a06374d81259","subcat":"Dessert Shop"},{"tcheckins":"0","name":"CREAM DUST","lat":"38.2612","lon":"21.7368","mastercat":"4d4b7105d754a06378d81259","subcat":"Cosmetics Shop"},{"tcheckins":"0","name":"\u0391\u03b3\u03ba\u03c5\u03c1\u03b1","lat":"38.2441","lon":"21.7262","mastercat":"4d4b7105d754a06374d81259","subcat":"Seafood Restaurant"},{"tcheckins":"0","name":"\u0397\u03c7\u03cc\u03c4\u03bf\u03c0\u03bf\u03c2","lat":"38.2489","lon":"21.7385","mastercat":"4d4b7105d754a06376d81259","subcat":"Bar"},{"tcheckins":"0","name":"Acera","lat":"38.2455","lon":"21.7322","mastercat":"4d4b7105d754a06374d81259","subcat":"Caf\u00e9"},{"tcheckins":"0","name":"Discover your Way","lat":"38.2461","lon":"21.7336","mastercat":"4d4b7105d754a06374d81259","subcat":"Bookstore"},{"tcheckins":"0","name":"Agiou Nikolaou (\u03a0\u03b5\u03b6\u03cc\u03b4\u03c1\u03bf\u03bc\u03bf\u03c2 \u0391\u03b3\u03af\u03bf\u03c5 \u039d\u03b9\u03ba\u03bf\u03bb\u03ac\u03bf\u03c5)","lat":"38.248","lon":"21.7359","mastercat":"4d4b7105d754a06377d81259","subcat":"Pedestrian Plaza"},{"tcheckins":"0","name":"\u039c\u03b9\u03ba\u03c1\u03bf\u03c2 \u03a0\u03c1\u03b9\u03b3\u03ba\u03b7\u03c0\u03b1\u03c2","lat":"38.2449","lon":"21.7313","mastercat":"4d4b7104d754a06370d81259","subcat":"Concert Hall"},{"tcheckins":"0","name":"\u03a0\u03b1\u03bd\u03b1\u03c7\u03b1\u03ca\u03ba\u03cc\u03bd","lat":"38.2417","lon":"21.7348","mastercat":"4d4b7105d754a06374d81259","subcat":"Restaurant"},{"tcheckins":"0","name":"G Slalom","lat":"38.2505","lon":"21.7399","mastercat":"4d4b7105d754a06378d81259","subcat":"Board Shop"},{"tcheckins":"0","name":"\u03a7\u03b1\u03c3\u03bf\u03bc\u03ad\u03c1\u03b9 (Hasomeri)","lat":"38.2447","lon":"21.7403","mastercat":"4d4b7105d754a06376d81259","subcat":"Bar"},{"tcheckins":"0","name":"\u03a3\u03ba\u03bf\u03c5\u03c6\u03ac\u03ba\u03b9","lat":"38.2454","lon":"21.7344","mastercat":"4d4b7105d754a06374d81259","subcat":"Caf\u00e9"},{"tcheckins":"0","name":"It the bar","lat":"38.2609","lon":"21.7387","mastercat":"4d4b7105d754a06374d81259","subcat":"Caf\u00e9"},{"tcheckins":"0","name":"\u0391\u03c3\u03c4\u03ad\u03c1\u03b9\u03b1 (\u0391steria)","lat":"38.2443","lon":"21.7274","mastercat":"4d4b7104d754a06370d81259","subcat":"Concert Hall"},{"tcheckins":"0","name":"\u03a4\u03c1\u03af\u03b3\u03b3\u03bf\u03c2","lat":"38.2472","lon":"21.7375","mastercat":"4d4b7105d754a06374d81259","subcat":"Bakery"},{"tcheckins":"0","name":"\u03a8\u03b7\u03c4\u03cc\u03c0\u03bf\u03bb\u03b9\u03c2","lat":"38.246","lon":"21.7356","mastercat":"4d4b7105d754a06374d81259","subcat":"Fast Food Restaurant"},{"tcheckins":"0","name":"\u039b\u03b1\u03cc\u03c2 \u03ba\u03b1\u03b9 \u039a\u03b1\u03bb\u03b1\u03bc\u03ac\u03ba\u03b9","lat":"38.2424","lon":"21.7306","mastercat":"4d4b7105d754a06374d81259","subcat":"Grilled Meat Restaurant"},{"tcheckins":"0","name":"Miss Sixty - Energie","lat":"38.2488","lon":"21.7379","mastercat":"4d4b7105d754a06378d81259","subcat":"Boutique"},{"tcheckins":"0","name":"\u03a0\u03b1\u03b9\u03b4\u03b9\u03ba\u03ae \u03a7\u03b1\u03c1\u03ac \u03a5\u03c8\u03b7\u03bb\u03ce\u03bd \u0391\u03bb\u03c9\u03bd\u03af\u03c9\u03bd","lat":"38.2408","lon":"21.7353","mastercat":"4d4b7105d754a06377d81259","subcat":"Playground"},{"tcheckins":"0","name":"\u039a\u03b1\u03c1\u03b1\u03ba\u03ac\u03c3\u03b7\u03c2","lat":"38.2503","lon":"21.7386","mastercat":"4d4b7105d754a06374d81259","subcat":"Dessert Shop"},{"tcheckins":"0","name":"\u039a\u03c1\u03b1\u03c3\u03bf\u03c0\u03cc\u03c4\u03b7\u03c1\u03bf","lat":"38.2449","lon":"21.7381","mastercat":"4d4b7105d754a06374d81259","subcat":"Meze Restaurant"},{"tcheckins":"0","name":"\u03a0\u03ac\u03bd\u03b8\u03b5\u03bf\u03bd","lat":"38.2437","lon":"21.7336","mastercat":"4d4b7104d754a06370d81259","subcat":"Theater"},{"tcheckins":"0","name":"Akis Galatis Luxury Hair Salon","lat":"38.2596","lon":"21.7387","mastercat":"4d4b7105d754a06378d81259","subcat":"Arts & Crafts Store"},{"tcheckins":"0","name":"the fishbar","lat":"38.2446","lon":"21.728","mastercat":"4d4b7105d754a06374d81259","subcat":"Seafood Restaurant"},{"tcheckins":"0","name":"Mauromaths","lat":"38.248","lon":"21.7381","mastercat":"4d4b7105d754a06374d81259","subcat":"Bakery"},{"tcheckins":"0","name":"Cherry's","lat":"38.2461","lon":"21.7357","mastercat":"4d4b7105d754a06376d81259","subcat":"Cocktail Bar"},{"tcheckins":"0","name":"\u03a3\u03c7\u03ac\u03c1\u03b1","lat":"38.2423","lon":"21.7308","mastercat":"4d4b7105d754a06374d81259","subcat":"Souvlaki Shop"},{"tcheckins":"0","name":"\u038c\u03c0\u03c9\u03c2 \u03a0\u03b1\u03bb\u03b9\u03ac","lat":"38.2507","lon":"21.7389","mastercat":"4d4b7105d754a06374d81259","subcat":"Caf\u00e9"},{"tcheckins":"0","name":"\u039f\u03b9\u03bd\u03bf\u03b8\u03ae\u03ba\u03b7 Vinum","lat":"38.244","lon":"21.7353","mastercat":"4d4b7105d754a06376d81259","subcat":"Wine Bar"},{"tcheckins":"0","name":"Yiapi-terraza","lat":"38.2477","lon":"21.7342","mastercat":"4d4b7105d754a06376d81259","subcat":"Bar"},{"tcheckins":"0","name":"BB King","lat":"38.2448","lon":"21.7313","mastercat":"4d4b7105d754a06374d81259","subcat":"Burger Joint"}] 